City_ID,City,Lat,Lng,Max Temp,Humidity,Cloudiness,Wind Speed,Country,Date
0,vaini,-21.2,-175.2,77.16,88,20,8.05,TO,1681384876
1,tessalit,20.1986,1.0114,93.54,7,48,10.2,ML,1681384877
2,rikitea,-23.1203,-134.9692,77.92,72,100,15.5,PF,1681384877
3,punta arenas,-53.15,-70.9167,30.31,93,75,6.91,CL,1681384877
4,kolosovka,56.4678,73.611,49.3,62,98,13.35,RU,1681384878
5,bethel,41.3712,-73.414,64.33,59,0,3.44,US,1681384351
6,jucurutu,-6.0339,-37.0203,81.68,67,89,11.41,BR,1681384878
7,robertson,36.5167,-86.8667,52.9,66,100,4.61,US,1681384878
8,byron bay,-28.65,153.6167,61.72,77,14,13.33,AU,1681384807
9,hobart,-42.8794,147.3294,53.06,93,20,0.0,AU,1681384880
10,kapaa,22.0752,-159.319,73.72,87,40,12.66,US,1681384880
11,saint-philippe,-21.3585,55.7679,85.59,77,21,1.74,RE,1681384881
12,airai,-8.9266,125.4092,62.44,94,100,1.32,TL,1681384881
13,rio gallegos,-51.6226,-69.2181,23.05,100,0,2.3,AR,1681384882
14,sao felix do xingu,-6.6447,-51.995,72.88,98,54,0.81,BR,1681384882
15,qaanaaq,77.484,-69.3632,4.35,75,0,6.11,GL,1681384883
16,hermanus,-34.4187,19.2345,69.8,70,59,14.27,ZA,1681384883
17,bluff,-46.6,168.3333,52.81,82,47,21.32,NZ,1681384883
18,biltine,14.5333,20.9167,99.97,10,61,6.42,TD,1681384883
19,dikson,73.5069,80.5464,3.18,86,83,20.71,RU,1681384884
20,mpongwe,-13.5091,28.155,73.83,74,96,2.93,ZM,1681384885
21,new norfolk,-42.7826,147.0587,52.72,71,0,0.85,AU,1681384885
22,estelle,29.8458,-90.1067,63.0,82,100,5.75,US,1681384886
23,ulladulla,-35.35,150.4667,62.76,86,93,10.33,AU,1681384886
24,bonnyville,54.2668,-110.735,28.2,80,68,2.98,CA,1681384886
25,bredasdorp,-34.5322,20.0403,70.57,49,81,16.2,ZA,1681384887
26,bosaso,11.2842,49.1816,84.18,84,20,24.16,SO,1681384887
27,yar-sale,66.8333,70.8333,1.35,86,72,20.07,RU,1681384599
28,kurchaloy,43.2018,46.0881,53.46,91,100,13.73,RU,1681384888
29,mahebourg,-20.4081,57.7,86.25,79,40,2.3,MU,1681384888
30,mae hong son,19.3003,97.9685,102.34,25,20,1.14,TH,1681384888
31,mataura,-46.1927,168.8643,52.48,87,59,8.57,NZ,1681384889
32,leh,34.1667,77.5833,38.79,53,12,3.51,IN,1681384889
33,thompson,55.7435,-97.8558,26.76,93,100,3.44,CA,1681384889
34,tiksi,71.6872,128.8694,-4.58,97,100,4.18,RU,1681384890
35,kattivakkam,13.2167,80.3167,95.09,75,1,13.8,IN,1681384890
36,busselton,-33.65,115.3333,56.91,83,94,22.84,AU,1681384891
37,puerto ayora,-0.7393,-90.3518,75.54,96,43,1.57,EC,1681384891
38,ushuaia,-54.8,-68.3,40.66,81,75,5.75,AR,1681384885
39,fiumicino,41.7675,12.2291,64.49,67,75,12.66,IT,1681384892
40,talnakh,69.4865,88.3972,-9.8,90,100,6.46,RU,1681384892
41,ucluelet,48.9329,-125.5528,41.09,91,100,6.04,CA,1681384774
42,panji,-7.7253,114.0995,78.93,85,100,2.98,ID,1681384893
43,rawson,-43.3002,-65.1023,42.87,49,0,9.57,AR,1681384847
44,hasaki,35.7333,140.8333,58.21,57,0,17.69,JP,1681384773
45,cape town,-33.9258,18.4232,72.37,66,20,11.5,ZA,1681384624
46,lagoa,39.05,-27.9833,59.97,83,88,11.77,PT,1681384894
47,blagoyevo,63.3667,47.9167,21.74,61,4,9.19,RU,1681384894
48,kenai,60.5544,-151.2583,33.89,86,100,13.8,US,1681384894
49,jamestown,42.097,-79.2353,65.79,76,0,11.5,US,1681384895
50,avarua,-21.2078,-159.775,77.05,83,75,4.61,CK,1681384895
51,atuona,-9.8,-139.0333,80.65,66,89,4.36,PF,1681384895
52,kaitangata,-46.2817,169.8464,52.88,90,99,11.63,NZ,1681384895
53,kyren,51.6828,102.1408,34.32,41,34,1.7,RU,1681384896
54,castro,-24.7911,-50.0119,63.79,87,0,2.35,BR,1681384896
55,trat,12.5,102.5,84.07,74,100,6.76,TH,1681384896
56,miraflores,19.2167,-98.8083,58.03,76,56,3.96,MX,1681384897
57,sitka,57.0531,-135.33,37.29,93,100,6.91,US,1681384759
58,harper,4.375,-7.7169,84.58,73,23,5.5,LR,1681384897
59,krasnoselkup,65.7,82.4667,7.65,79,100,14.25,RU,1681384898
60,sao sebastiao,-23.76,-45.4097,76.01,78,0,2.57,BR,1681384898
61,hilo,19.7297,-155.09,70.29,91,100,8.99,US,1681384898
62,vostok,46.4856,135.8833,30.65,79,100,6.49,RU,1681384899
63,issa,53.8705,44.8578,59.38,32,100,16.62,RU,1681384899
64,vestmannaeyjar,63.4427,-20.2734,43.79,81,0,10.36,IS,1681384899
65,naze,28.3667,129.4833,67.12,90,32,13.69,JP,1681384900
66,saskylakh,71.9167,114.0833,-2.52,90,11,5.77,RU,1681384900
67,albany,42.6001,-73.9662,58.64,74,0,1.01,US,1681384706
68,barrow,71.2906,-156.7887,-9.38,84,20,6.91,US,1681384900
69,isangel,-19.55,169.2667,79.83,83,43,4.76,VU,1681384901
70,port alfred,-33.5906,26.891,69.19,75,89,7.0,ZA,1681384901
71,boyolangu,-8.1181,111.8935,77.52,87,100,6.89,ID,1681384901
72,vao,-22.6667,167.4833,77.45,78,100,7.16,NC,1681384902
73,butaritari,3.0707,172.7902,81.45,79,47,12.55,KI,1681384902
74,cabadiangan,9.7531,122.4739,79.32,82,38,3.0,PH,1681384903
75,roald,62.5833,6.1333,54.52,54,0,10.36,NO,1681384903
76,bambous virieux,-20.3428,57.7575,86.22,79,40,2.3,MU,1681384903
77,provideniya,64.3833,-173.3,-5.22,97,69,6.71,RU,1681384904
78,bryant,34.5959,-92.4891,60.42,85,100,1.45,US,1681384904
79,khash,28.2211,61.2158,84.36,11,0,15.99,IR,1681384904
80,arraial do cabo,-22.9661,-42.0278,78.66,78,0,16.11,BR,1681384904
81,gao,16.6362,1.637,98.76,9,96,6.02,ML,1681384904
82,wad rawah,15.1603,33.1397,97.43,9,9,16.31,SD,1681384905
83,lasa,46.6166,10.7002,40.08,92,100,6.93,IT,1681384905
84,severo-kurilsk,50.6789,156.125,33.62,99,100,24.38,RU,1681384906
85,tual,-5.6667,132.75,83.57,74,80,2.37,ID,1681384906
86,key west,24.5557,-81.7826,78.01,83,0,4.61,US,1681384783
87,mweka,-4.85,21.5667,90.91,41,45,2.89,CD,1681384906
88,beyneu,45.3167,55.2,88.16,18,100,5.12,KZ,1681384906
89,sao joao da barra,-21.6403,-41.0511,77.09,79,82,7.99,BR,1681384907
90,fairbanks,64.8378,-147.7164,13.08,84,100,4.61,US,1681384449
91,phenix city,32.471,-85.0008,61.27,89,100,10.36,US,1681384742
92,kavieng,-2.5744,150.7967,83.35,76,99,11.25,PG,1681384907
93,olafsvik,64.8945,-23.7142,36.77,71,20,5.93,IS,1681384908
94,miramar,25.9873,-80.2323,77.0,92,0,3.44,US,1681384740
95,tuktoyaktuk,69.4541,-133.0374,-17.18,100,94,7.05,CA,1681384908
96,meadow lake,34.8014,-106.5436,60.12,37,57,6.11,US,1681384908
97,zaysan,47.4667,84.8667,51.64,30,1,5.21,KZ,1681384908
98,mar del plata,-38.0023,-57.5575,50.09,93,40,4.61,AR,1681384909
99,cidreira,-30.1811,-50.2056,67.93,86,78,19.24,BR,1681384909
100,mogadishu,2.0371,45.3438,85.68,59,100,10.92,SO,1681384746
101,mmabatho,-25.85,25.6333,81.7,26,4,17.45,ZA,1681384909
102,chokurdakh,70.6333,147.9167,-11.16,99,51,5.59,RU,1681384910
103,bathsheba,13.2167,-59.5167,79.41,73,40,16.11,BB,1681384910
104,ilulissat,69.2167,-51.1,23.02,93,100,0.0,GL,1681384911
105,ponta do sol,32.6667,-17.1,72.01,69,12,2.48,PT,1681384911
106,edd,13.9297,41.6925,88.09,64,82,10.85,ER,1681384912
107,petropavlovsk-kamchatskiy,53.0452,158.6483,30.79,80,75,13.42,RU,1681384912
108,dolinsk,47.35,142.8,33.89,82,98,7.83,RU,1681384912
109,muisne,0.6,-80.0333,76.62,90,66,4.59,EC,1681384912
110,conceicao do araguaia,-8.2578,-49.2647,76.96,86,74,2.3,BR,1681384912
111,fortuna,40.5982,-124.1573,37.98,89,38,4.43,US,1681384913
112,auki,-8.7676,160.7034,77.52,88,71,3.51,SB,1681384913
113,laguna,38.421,-121.4238,51.3,45,0,17.27,US,1681384913
114,nanakuli,21.3906,-158.1547,75.15,75,0,4.61,US,1681384913
115,port keats,-14.25,129.55,80.6,82,99,4.79,AU,1681384913
116,ahipara,-35.1667,173.1667,62.2,94,91,6.42,NZ,1681384914
117,bengkulu,-3.8004,102.2655,81.21,79,91,3.85,ID,1681384914
118,port elizabeth,-33.918,25.5701,78.1,51,0,19.57,ZA,1681384914
119,srednekolymsk,67.45,153.6833,-5.78,100,20,2.57,RU,1681384915
120,komsomolskiy,40.4272,71.7189,77.72,33,100,2.3,UZ,1681384915
121,sao jose da laje,-9.0097,-36.0583,78.08,79,93,8.43,BR,1681384915
122,saint george,37.1041,-113.5841,66.25,32,0,8.05,US,1681384621
123,nikolskoye,59.7035,30.7861,44.49,58,99,11.32,RU,1681384916
124,east london,-33.0153,27.9116,70.74,60,20,11.5,ZA,1681384916
125,tabou,4.423,-7.3528,84.78,73,16,5.35,CI,1681384916
126,upernavik,72.7868,-56.1549,11.62,88,99,1.54,GL,1681384916
127,jumla,29.2747,82.1838,66.54,26,96,6.87,NP,1681384916
128,norman wells,65.282,-126.8329,8.64,78,75,6.91,CA,1681384647
129,lebu,-37.6167,-73.65,53.44,94,75,3.36,CL,1681384917
130,san blas,21.5167,-105.2667,66.7,51,85,3.91,MX,1681384917
131,oktyabrskiy,54.4815,53.471,61.39,25,100,6.58,RU,1681384918
132,vila velha,-20.3297,-40.2925,78.94,78,40,4.61,BR,1681384918
133,saint anthony,45.0205,-93.218,64.33,54,0,11.5,US,1681384919
134,chara,56.9064,118.2631,21.56,84,93,4.03,RU,1681384919
135,montepuez,-13.1256,38.9997,79.95,70,84,4.45,MZ,1681384919
136,ambilobe,-13.2,49.05,88.21,59,34,5.23,MG,1681384919
137,mount isa,-20.7333,139.5,78.57,44,95,0.0,AU,1681384919
138,camacha,33.0833,-16.3333,62.02,77,40,12.66,PT,1681384920
139,souillac,-20.5167,57.5167,84.58,79,40,2.3,MU,1681384920
140,alice springs,-23.7,133.8833,78.35,36,100,10.36,AU,1681384783
141,goya,-29.14,-59.2626,60.85,96,100,10.11,AR,1681384920
142,opuwo,-18.0607,13.84,90.25,22,3,4.99,NA,1681384878
143,esperance,-33.8667,121.9,70.81,56,85,10.18,AU,1681384921
144,ribeira grande,38.5167,-28.7,63.77,94,75,16.11,PT,1681384921
145,tuatapere,-46.1333,167.6833,50.99,90,62,4.68,NZ,1681384922
146,vanavara,60.34,102.2797,30.06,79,100,14.29,RU,1681384922
147,homer,59.6425,-151.5483,35.8,77,100,1.99,US,1681384923
148,joshimath,30.5667,79.5667,71.47,35,37,5.28,IN,1681384755
149,sabang,5.8933,95.3214,83.73,72,55,8.21,ID,1681384923
150,changli,39.7042,119.1506,60.66,56,100,5.91,CN,1681384924
151,japura,-0.3167,102.35,84.07,70,85,1.3,ID,1681384924
152,hervey bay,-25.2986,152.8535,72.01,43,0,14.03,AU,1681384791
153,belaya gora,68.5333,146.4167,-4.58,100,25,2.48,RU,1681384924
154,bahia blanca,-38.7196,-62.2724,42.82,79,3,1.99,AR,1681384925
155,georgetown,5.4112,100.3354,88.95,78,20,8.05,MY,1681384664
156,torbay,47.6666,-52.7314,33.39,96,100,13.8,CA,1681384925
157,sao filipe,14.8961,-24.4956,74.17,73,95,5.37,CV,1681384925
158,kirkenaer,60.4564,12.0582,42.33,98,100,13.98,NO,1681384926
159,champasak,14.75,106.0,77.85,82,88,2.89,LA,1681384928
160,oshawa,43.9001,-78.8496,61.68,85,0,2.3,CA,1681384928
161,dalmatovo,56.26,62.9362,59.77,28,100,17.92,RU,1681384928
162,ketchikan,55.3422,-131.6461,37.38,93,100,10.36,US,1681384929
163,kirakira,-10.4544,161.9205,79.81,82,48,0.69,SB,1681384929
164,longyearbyen,78.2186,15.6401,31.84,93,75,2.3,SJ,1681384929
165,faanui,-16.4833,-151.75,81.99,68,15,14.07,PF,1681384931
166,arzamas,55.3949,43.8399,58.98,38,94,15.64,RU,1681384931
167,acapulco,16.8634,-99.8901,76.82,69,0,5.75,MX,1681384932
168,clyde river,70.4692,-68.5914,5.23,72,100,21.85,CA,1681384932
169,cabo san lucas,22.8909,-109.9124,67.51,54,100,13.04,MX,1681384932
170,kodiak,57.79,-152.4072,36.91,65,100,0.0,US,1681384710
171,birao,10.2849,22.7882,101.41,13,10,9.31,CF,1681384933
172,nome,64.5011,-165.4064,-13.85,84,0,0.0,US,1681384933
173,denpasar,-8.65,115.2167,78.46,83,40,4.61,ID,1681384669
174,santo antonio do ica,-3.1022,-67.9397,73.62,98,100,1.39,BR,1681384933
175,bogandinskiy,56.8937,65.8938,37.67,66,84,13.51,RU,1681384934
176,cradock,-32.1642,25.6192,73.24,16,100,5.21,ZA,1681384934
177,norrtalje,59.758,18.705,44.78,94,100,15.82,SE,1681384934
178,ampanihy,-24.7,44.75,79.23,60,71,11.72,MG,1681384935
179,batemans bay,-35.7167,150.1833,63.1,90,94,9.51,AU,1681384935
180,ola,59.5833,151.2833,17.47,75,26,13.02,RU,1681384935
181,tasiilaq,65.6145,-37.6368,35.76,88,100,3.58,GL,1681384936
182,te anau,-45.4167,167.7167,48.22,96,56,2.55,NZ,1681384666
183,baykit,61.67,96.37,33.12,95,100,10.33,RU,1681384936
184,san patricio,28.017,-97.5169,67.84,87,0,4.65,US,1681384936
185,pampa,35.5362,-100.9599,56.35,53,0,16.82,US,1681384801
186,ust-tsilma,65.441,52.1498,17.26,69,6,7.02,RU,1681384937
187,port lincoln,-34.7333,135.8667,60.71,70,0,9.93,AU,1681384937
188,san vicente,-26.6167,-54.1333,65.82,75,11,1.43,AR,1681384937
189,piacabucu,-10.4056,-36.4344,80.73,78,65,10.27,BR,1681384938
190,ust-kuyga,70.0167,135.6,8.62,90,97,2.86,RU,1681384938
191,kruisfontein,-34.0033,24.7314,75.88,30,87,14.07,ZA,1681384938
192,carnarvon,-24.8667,113.6333,72.68,66,7,23.82,AU,1681384939
193,kralendijk,12.15,-68.2667,78.78,78,40,13.8,BQ,1681384939
194,kedrovyy,56.1667,91.8167,37.87,60,100,13.2,RU,1681384939
195,filadelfia,39.9523,-75.1638,66.2,64,0,6.91,US,1681384663
196,buraydah,26.326,43.975,70.25,16,55,2.33,SA,1681384940
197,shache,38.4167,77.2406,74.61,12,39,6.85,CN,1681384940
198,ryazhsk,53.7038,40.1109,60.64,31,100,19.1,RU,1681384941
199,swan hill,-35.3378,143.5544,64.15,60,31,4.21,AU,1681384941
200,north bend,43.4065,-124.2243,37.85,94,0,8.05,US,1681384942
201,taltal,-25.4,-70.4833,63.5,81,6,3.24,CL,1681384942
202,verkhnevilyuysk,63.4453,120.3167,18.23,91,76,3.29,RU,1681384943
203,mabaruma,8.2,-59.7833,77.09,82,58,2.55,GY,1681384943
204,kahului,20.8947,-156.47,74.84,77,20,8.99,US,1681384859
205,college,64.8569,-147.8028,13.06,85,100,4.61,US,1681384944
206,codrington,-38.2667,141.9667,58.62,87,1,8.34,AU,1681384944
207,baykalsk,51.5058,104.1469,27.21,77,38,3.85,RU,1681384944
208,tongchuan,35.0806,109.0897,60.96,72,64,1.34,CN,1681384944
209,biskamzha,53.4497,89.5272,35.11,77,100,8.97,RU,1681384945
210,san jeronimo,-11.9472,-75.2829,46.92,89,96,1.97,PE,1681384945
211,pahrump,36.2083,-115.9839,59.31,45,100,7.0,US,1681384945
212,cayenne,4.9333,-52.3333,77.04,94,75,3.44,GF,1681384945
213,dingle,10.9995,122.6711,78.87,80,65,1.77,PH,1681384945
214,chuy,-33.6971,-53.4616,55.53,81,95,7.34,UY,1681384946
215,nicosia,35.1667,33.3667,71.69,32,40,18.41,CY,1681384848
216,aklavik,68.2191,-135.0107,-4.5,85,100,6.46,CA,1681384946
217,coquimbo,-29.9533,-71.3436,55.13,100,100,5.75,CL,1681384946
218,phek,25.6667,94.5,73.45,21,0,3.67,IN,1681384947
219,baruun-urt,46.6806,113.2792,46.56,18,69,16.89,MN,1681384947
220,ryde,50.73,-1.1621,55.71,66,10,8.99,GB,1681384947
221,astana,51.1801,71.446,64.35,20,0,13.42,KZ,1681384947
222,ixtapa,20.7,-105.2,68.23,75,75,4.05,MX,1681384948
223,areka,7.0667,37.7,79.72,40,86,3.96,ET,1681384948
224,zhangye,38.9342,100.4517,51.98,28,100,0.58,CN,1681384948
225,saldanha,-33.0117,17.9442,66.25,80,75,9.42,ZA,1681384948
226,kulhudhuffushi,6.6221,73.07,83.77,71,10,6.4,MV,1681384949
227,tukrah,32.5341,20.5791,71.31,38,0,13.31,LY,1681384949
228,sabha,27.0377,14.4283,79.97,9,7,10.94,LY,1681384949
229,soe,-9.8607,124.284,68.54,95,82,1.72,ID,1681384950
230,andros town,24.7,-77.7667,73.36,76,76,9.48,BS,1681384950
231,derzhavinsk,51.1,66.3167,65.12,31,100,9.06,KZ,1681384951
232,pingliang,35.5392,106.6861,63.12,30,90,16.2,CN,1681384951
233,yellowknife,62.456,-114.3525,14.52,92,0,5.75,CA,1681384849
234,kosh-agach,50.0,88.6667,28.65,55,88,2.86,RU,1681384951
235,geraldton,-28.7667,114.6,68.41,88,75,14.97,AU,1681384786
236,mehamn,71.0357,27.8492,35.55,69,0,20.71,NO,1681384951
237,mont-dore,-22.2833,166.5833,81.0,99,100,4.0,NC,1681384952
238,half moon bay,37.4636,-122.4286,50.31,81,0,11.5,US,1681384952
239,merauke,-8.4667,140.3333,79.16,84,100,1.45,ID,1681384952
240,bandarbeyla,9.4942,50.8122,85.8,65,63,10.65,SO,1681384953
241,new baltimore,42.6811,-82.7369,63.63,59,0,8.05,US,1681384954
242,manavalakurichi,8.1333,77.3,86.14,66,23,7.02,IN,1681384954
243,lata,40.1629,-8.3327,59.07,61,100,6.13,PT,1681384954
244,nouakchott,18.0858,-15.9785,84.13,51,70,3.83,MR,1681384955
245,zverinogolovskoye,54.4586,64.8542,61.39,26,25,15.41,RU,1681384955
246,visby,57.6409,18.296,54.05,66,0,16.11,SE,1681384955
247,karratha,-20.7377,116.8463,86.18,63,100,2.44,AU,1681384956
248,nantucket,41.2835,-70.0995,53.65,83,0,6.91,US,1681384956
249,vardo,70.3705,31.1107,31.98,69,0,25.32,NO,1681384956
250,ludvika,60.1496,15.1878,50.34,81,100,12.59,SE,1681384956
251,micheweni,-4.9667,39.8333,84.54,68,81,1.97,TZ,1681384956
252,yuancheng,36.652,107.7896,59.18,21,88,21.23,CN,1681384957
253,hanna,51.6334,-111.9018,32.94,71,2,2.84,CA,1681384957
254,hithadhoo,-0.6,73.0833,83.48,67,7,2.13,MV,1681384957
255,mayo,38.8876,-76.5119,66.15,61,0,1.01,US,1681384957
256,khatanga,71.9667,102.5,0.48,84,64,6.67,RU,1681384958
257,lavumisa,-27.31,31.892,91.67,22,0,4.43,SZ,1681384958
258,adrar,20.5022,-10.0711,88.14,16,32,9.93,MR,1681384958
259,san cristobal,7.7669,-72.225,66.38,88,100,1.61,VE,1681384958
260,sterling,39.0062,-77.4286,63.41,62,0,3.44,US,1681384846
261,bilma,18.6853,12.9164,87.62,7,27,2.91,NE,1681384959
262,todos santos,23.45,-110.2167,61.66,87,99,10.47,MX,1681384959
263,akyab,20.15,92.9,85.78,66,2,13.2,MM,1681384959
264,havre-saint-pierre,50.2334,-63.5986,37.4,87,20,6.91,CA,1681384960
265,ancud,-41.8697,-73.8203,48.0,81,100,6.53,CL,1681384960
266,zhezkazgan,47.8043,67.7144,67.98,24,20,17.9,KZ,1681384961
267,pevek,69.7008,170.3133,0.0,97,100,0.67,RU,1681384961
268,paraipaba,-3.4394,-39.1483,78.08,77,98,6.17,BR,1681384954
269,nanortalik,60.1432,-45.2371,33.62,86,100,1.23,GL,1681384961
270,diamantino,-14.4086,-56.4461,72.66,92,90,3.98,BR,1681384961
271,oussouye,12.485,-16.5469,86.09,40,100,8.16,SN,1681384962
272,port arthur,38.8,121.2667,53.82,69,100,7.96,CN,1681384962
273,kashan,33.9831,51.4364,81.99,29,100,18.41,IR,1681384962
274,najran,17.4924,44.1277,92.05,19,10,5.06,SA,1681384962
275,broken hill,-31.95,141.4333,61.14,62,0,10.56,AU,1681384963
276,daru,-9.0763,143.2092,78.13,87,96,3.31,PG,1681384963
277,roebourne,-20.7833,117.1333,86.77,61,100,10.69,AU,1681384963
278,winnemucca,40.973,-117.7357,24.85,68,0,0.0,US,1681384963
279,saint-joseph,-21.3667,55.6167,84.58,78,22,1.9,RE,1681384963
280,katsuura,35.1333,140.3,58.93,68,0,13.02,JP,1681384964
281,mount gambier,-37.8333,140.7667,57.29,90,44,4.79,AU,1681384964
282,iwanai,42.9744,140.5089,41.07,59,26,6.49,JP,1681384964
283,road town,18.4167,-64.6167,78.89,73,40,5.75,VG,1681384964
284,kungurtug,50.5994,97.5228,27.88,57,41,1.54,RU,1681384965
285,kankakee,41.15,-87.8667,53.29,76,29,6.91,US,1681384608
286,weinan,34.5036,109.5089,64.02,74,83,4.07,CN,1681384965
287,caxias do sul,-29.1681,-51.1794,62.33,97,70,2.48,BR,1681384763
288,iquitos,-3.7481,-73.2472,75.24,100,40,2.3,PE,1681384966
289,bilibino,68.0546,166.4372,-5.53,97,100,3.51,RU,1681384966
290,cordoba,-31.4135,-64.1811,56.19,97,100,3.44,AR,1681384795
291,bedele,8.456,36.353,81.09,29,100,6.69,ET,1681384966
292,ust-omchug,61.15,149.6333,1.6,93,6,4.45,RU,1681384966
293,guerrero negro,27.9769,-114.0611,55.47,80,66,13.11,MX,1681384677
294,saint stephen,50.3333,-4.9,52.03,81,40,13.8,GB,1681384967
295,shiojiri,36.1,137.9667,47.34,59,13,5.39,JP,1681384967
296,vanimo,-2.6741,141.3028,78.87,86,37,5.5,PG,1681384967
297,awbari,26.5921,12.7805,81.66,8,32,9.73,LY,1681384967
298,tommot,58.9564,126.2925,26.33,94,100,2.24,RU,1681384968
299,salalah,17.0151,54.0924,87.89,66,20,11.5,OM,1681384968
300,sobolevo,54.4299,31.8996,58.69,40,100,13.89,RU,1681384968
301,dabakala,8.3667,-4.4333,92.12,45,40,6.29,CI,1681384968
302,valdez,1.2492,-78.9831,77.25,87,77,4.85,EC,1681384969
303,sur,22.5667,59.5289,85.55,48,25,4.74,OM,1681384969
304,kismayo,-0.3582,42.5454,87.22,61,96,12.73,SO,1681384969
305,plettenberg bay,-34.0527,23.3716,67.64,53,46,10.49,ZA,1681384970
306,meulaboh,4.1363,96.1285,82.18,79,97,4.34,ID,1681384970
307,goundam,16.4145,-3.6708,99.01,8,92,17.49,ML,1681384970
308,goderich,43.7501,-81.7165,61.12,51,3,13.8,CA,1681384874
309,sisimiut,66.9395,-53.6735,22.12,86,73,4.25,GL,1681384971
310,doka,13.5167,35.7667,103.5,18,12,10.42,SD,1681384971
311,kavaratti,10.5669,72.642,84.11,71,100,4.34,IN,1681384971
312,saint-georges,12.0564,-61.7485,76.78,79,90,11.21,GD,1681384972
313,kalaswala,32.2009,74.6491,96.76,12,0,7.45,PK,1681384972
314,zalantun,48.0,122.7167,44.67,29,10,8.79,CN,1681384972
315,baoning,25.3378,110.026,75.06,78,100,4.47,CN,1681384972
316,deputatskiy,69.3,139.9,-2.79,99,71,2.3,RU,1681384973
317,kuching,1.55,110.3333,84.42,74,20,4.61,MY,1681384973
318,zimovniki,47.1483,42.4633,57.7,68,100,20.18,RU,1681384973
319,abadan,30.3392,48.3043,75.15,43,75,11.5,IR,1681384973
320,wilkie,52.4168,-108.7014,23.38,73,2,4.9,CA,1681384973
321,bidar,17.9,77.55,100.4,15,100,7.31,IN,1681384839
322,chenzhou,25.8,113.0333,77.49,77,30,5.64,CN,1681384974
323,elk city,35.412,-99.4043,53.82,76,0,13.8,US,1681384974
324,myre,69.1036,15.9492,46.35,72,6,13.31,NO,1681384974
325,labuhan,-6.8844,112.2051,79.95,85,100,5.12,ID,1681384975
326,iqaluit,63.7506,-68.5145,11.93,85,100,1.99,CA,1681384975
327,padilla,3.2204,-76.3139,65.77,91,100,3.44,CO,1681384975
328,lompoc,34.6391,-120.4579,48.02,80,0,18.99,US,1681384975
329,stranda,62.3096,6.9358,53.94,56,100,4.56,NO,1681384975
330,praia,14.9215,-23.5087,79.34,61,20,11.5,CV,1681384976
331,narsaq,60.9167,-46.05,34.02,73,99,2.26,GL,1681384976
332,manbij,36.5281,37.9549,61.2,47,37,16.06,SY,1681384976
333,grindavik,63.8424,-22.4338,41.47,65,40,9.22,IS,1681384976
334,itarema,-2.9248,-39.9167,79.05,80,77,8.08,BR,1681384976
335,darhan,49.4867,105.9228,33.84,39,87,5.91,MN,1681384977
336,burns lake,54.2331,-125.7533,27.82,94,100,3.42,CA,1681384977
337,gizo,-8.103,156.8419,80.76,79,96,8.05,SB,1681384977
338,aitape,-3.1374,142.3475,79.75,85,76,4.99,PG,1681384977
339,antalaha,-14.9003,50.2788,83.98,65,48,7.92,MG,1681384977
340,saint andrews,34.0454,-81.1293,50.25,93,40,0.0,US,1681384977
341,hoa binh,20.8133,105.3383,82.22,83,84,7.4,VN,1681384978
342,odweyne,9.4092,45.064,83.03,40,100,4.16,SO,1681384978
343,tibiri,13.5627,7.0485,97.14,10,52,13.8,NE,1681384978
344,beringovskiy,63.05,179.3167,-4.88,98,94,7.0,RU,1681384978
345,kisanga,-7.4362,37.7034,88.3,57,99,5.32,TZ,1681384979
346,dwarka,22.2394,68.9678,84.65,55,86,14.27,IN,1681384979
347,gilgit,35.9221,74.3087,66.27,37,0,2.66,PK,1681384979
348,florence,43.7667,11.25,62.92,59,40,13.8,IT,1681384979
349,tecoanapa,16.5167,-98.75,76.39,67,41,2.77,MX,1681384979
350,kamenka,51.3223,42.7678,53.78,61,100,24.96,RU,1681384980
351,leirvik,59.7798,5.5005,50.86,86,75,17.27,NO,1681384980
352,santa fe,-31.6333,-60.7,60.03,85,85,8.99,AR,1681384707
353,independence,39.0911,-94.4155,58.95,68,0,8.05,US,1681384754
354,taoudenni,22.6783,-3.9836,93.2,7,43,9.42,ML,1681384980
355,verkhnyaya inta,65.9811,60.3094,8.33,72,96,8.39,RU,1681384981
356,ifakara,-8.1333,36.6833,84.0,71,90,3.29,TZ,1681384981
357,rapid valley,44.0625,-103.1463,39.76,70,0,11.5,US,1681384981
358,waipawa,-41.4122,175.5153,54.5,85,99,3.94,NZ,1681384982
359,florian,5.8049,-73.9703,60.15,94,100,3.42,CO,1681384982
360,lodja,-3.4833,23.4333,92.12,41,93,3.06,CD,1681384982
361,myitkyina,25.3833,97.4,97.59,14,0,3.04,MM,1681384983
362,bafq,31.6128,55.4107,86.02,18,100,24.72,IR,1681384985
363,portland,45.5234,-122.6762,40.86,92,100,1.99,US,1681384522
364,zabid,14.1951,43.3152,93.92,44,53,17.43,YE,1681384986
365,gat,31.61,34.7642,61.48,100,88,21.7,IL,1681384986
366,itaborai,-22.7444,-42.8594,74.8,77,3,2.1,BR,1681384986
367,manchester,53.4809,-2.2374,51.85,72,75,21.85,GB,1681384987
368,luang prabang,19.8856,102.1347,101.32,17,40,4.21,LA,1681384987
369,along,28.1667,94.7667,84.31,48,3,2.98,IN,1681384987
370,altay,47.8667,88.1167,38.97,51,40,2.19,CN,1681384987
371,coihaique,-45.5752,-72.0662,21.15,100,0,1.14,CL,1681384988
372,lorengau,-2.0226,147.2712,81.81,81,98,11.12,PG,1681384988
373,deer lake,49.1667,-57.4316,31.86,100,75,0.0,CA,1681384988
374,staryy nadym,65.6118,72.6842,5.27,82,100,20.0,RU,1681384988
375,mugur-aksy,50.35,90.5,27.99,43,100,5.23,RU,1681384988
376,itaueira,-7.6033,-43.0256,79.3,55,88,7.45,BR,1681384988
377,kachug,53.9606,105.8817,30.52,48,97,1.97,RU,1681384989
378,namibe,-15.1961,12.1522,80.51,60,49,6.8,AO,1681384989
379,richards bay,-28.783,32.0377,82.38,45,15,4.52,ZA,1681384989
380,marsh harbour,26.5412,-77.0636,73.98,85,57,16.55,BS,1681384989
381,muzhi,65.3667,64.6667,9.19,71,10,12.62,RU,1681384990
382,alcacer do sal,38.3733,-8.5144,63.81,38,100,11.56,PT,1681384990
383,kamaishi,39.2667,141.8833,48.76,66,1,3.71,JP,1681384990
384,paraiso,9.8383,-83.8656,65.26,97,50,3.36,CR,1681384990
385,manzanillo,20.3433,-77.1167,73.06,84,7,3.38,CU,1681384991
386,scarborough,54.2797,-0.4044,49.57,84,86,8.01,GB,1681384968
387,rocha,-34.4833,-54.3333,56.59,64,100,7.36,UY,1681384991
388,labuan,5.2767,115.2417,82.76,74,20,2.3,MY,1681384992
389,mirnyy,62.5353,113.9611,15.3,92,96,3.74,RU,1681384992
390,rudsar,37.1376,50.288,71.58,65,96,11.34,IR,1681384992
391,bairiki,1.3292,172.9752,80.6,89,75,6.91,KI,1681384993
392,jiuquan,39.7432,98.5174,53.13,26,100,6.49,CN,1681384993
393,loandjili,-4.7561,11.8578,87.91,70,20,5.75,CG,1681384994
394,cherskiy,68.75,161.3,-8.81,100,96,3.11,RU,1681384994
395,jiaojiang,28.6803,121.4428,66.99,93,100,2.59,CN,1681384994
396,vysokogornyy,50.1167,139.15,23.76,93,97,3.85,RU,1681384994
397,lima,-12.0432,-77.0282,73.9,84,0,8.05,PE,1681384872
398,samarai,-10.6167,150.6667,81.28,80,100,10.0,PG,1681384995
399,bolshoye murashkino,55.7826,44.7754,57.63,43,84,16.75,RU,1681384995
400,wewak,-3.5534,143.6268,80.46,84,24,11.95,PG,1681384995
401,ust-karsk,52.7011,118.8077,29.19,88,16,4.23,RU,1681384995
402,tomatlan,19.9333,-105.25,63.48,54,24,3.83,MX,1681384996
403,amahai,-3.3333,128.9167,81.03,82,93,1.9,ID,1681384996
404,ewa beach,21.3156,-158.0072,75.15,74,0,9.22,US,1681384996
405,linjiang,41.8069,126.9078,52.14,75,97,5.17,CN,1681384997
406,bull savanna,17.8868,-77.5902,72.1,89,42,6.4,JM,1681384997
407,altinopolis,-21.0256,-47.3739,67.35,91,22,2.21,BR,1681384997
408,petukhovo,55.0692,67.9019,58.41,28,25,17.05,RU,1681384998
409,mazagao,-0.115,-51.2894,78.85,85,61,2.55,BR,1681384998
410,aksu,41.1231,80.2644,67.48,11,12,6.87,CN,1681384998
411,avanigadda,16.0215,80.9181,95.88,31,0,12.53,IN,1681384998
412,cobija,-11.0267,-68.7692,73.58,100,91,0.0,BO,1681384999
413,aksarka,66.5606,67.7975,9.39,78,18,7.2,RU,1681384999
414,kiama,-34.6833,150.8667,66.99,94,99,1.01,AU,1681384726
415,turayf,31.6725,38.6637,61.05,31,75,13.8,SA,1681384999
416,brae,60.3964,-1.353,45.28,81,86,15.75,GB,1681384999
417,udachnyy,66.4167,112.4,16.45,36,84,9.55,RU,1681384999
418,tabas,33.5959,56.9244,95.22,14,92,16.11,IR,1681385000
419,marataizes,-21.0433,-40.8244,75.69,79,87,3.94,BR,1681385000
420,neiafu,-18.65,-173.9833,80.94,73,95,17.52,TO,1681385001
421,maldonado,-34.6667,-54.9167,60.22,63,99,7.9,UY,1681385001
422,samarinda,-0.5,117.15,77.05,96,100,2.89,ID,1681385001
423,arbazh,57.6804,48.3065,43.93,51,71,16.96,RU,1681385002
424,puerto colombia,10.9878,-74.9547,78.89,82,96,17.47,CO,1681385002
425,leningradskiy,69.3833,178.4167,-14.85,100,63,5.32,RU,1681385002
426,nemuro,43.3236,145.575,39.34,70,71,5.79,JP,1681385002
427,rongcheng,30.634,117.8517,71.6,84,76,2.71,CN,1681385003
428,bose,45.4612,8.0137,58.28,45,90,9.26,IT,1681385003
429,nuevo progreso,23.1667,-97.95,65.46,79,45,4.16,MX,1681385003
430,penzance,50.1186,-5.5371,52.77,71,20,19.57,GB,1681385003
431,verkhnetulomskiy,68.6073,31.7962,33.93,58,14,7.14,RU,1681385004
432,beloha,-25.1667,45.05,77.59,64,92,9.08,MG,1681385004
433,muyezerskiy,63.9333,31.65,28.69,72,6,10.69,RU,1681385004
434,fuerte olimpo,-21.0415,-57.8738,73.13,95,8,4.05,PY,1681385004
435,makakilo city,21.3469,-158.0858,73.72,74,0,9.22,US,1681385005
436,avera,33.194,-82.5271,55.38,88,100,6.58,US,1681385005
437,gbarnga,6.9956,-9.4722,91.62,48,29,2.93,LR,1681385005
438,san fernando,15.0286,120.6898,82.13,87,100,3.02,PH,1681384900
439,abu samrah,35.3029,37.1841,59.94,56,89,25.66,SY,1681385006
440,minab,27.1467,57.0801,93.52,31,0,9.22,IR,1681385006
441,topchikha,52.8192,83.1185,52.72,40,96,15.75,RU,1681385006
442,marzuq,14.4,46.4667,85.96,34,24,13.11,YE,1681385007
443,los llanos de aridane,28.6585,-17.9182,65.95,64,75,17.27,ES,1681385007
444,lukovetskiy,64.2956,41.9211,25.27,52,4,7.14,RU,1681385007
445,quatre cocos,-20.2078,57.7625,86.09,69,43,8.63,MU,1681385007
446,roma,43.2128,-75.4557,58.62,83,0,0.0,US,1681384803
447,araras,-22.3569,-47.3842,69.48,91,20,3.42,BR,1681385007
448,alofi,-19.0595,-169.9187,78.69,83,100,11.5,NU,1681385008
449,bastia,42.6667,9.3333,62.4,37,75,4.0,FR,1681385008
450,port hedland,-20.3167,118.5667,78.85,94,75,23.02,AU,1681384788
451,wilmington,34.2257,-77.9447,58.86,87,0,0.0,US,1681384715
452,lerwick,60.1545,-1.1494,46.4,85,91,17.13,GB,1681385009
453,sept-iles,50.2001,-66.3821,37.92,68,20,10.36,CA,1681385009
454,benjamin constant,-4.3831,-70.0311,75.33,94,20,0.0,BR,1681385009
455,zhanaozen,43.3,52.8,73.81,40,100,9.04,KZ,1681385010
456,hazorasp,41.3194,61.0742,96.64,7,91,21.99,UZ,1681385010
457,quelimane,-17.8786,36.8883,84.15,70,75,3.44,MZ,1681385010
458,mitsamiouli,-11.3847,43.2844,82.89,71,49,3.2,KM,1681385011
459,kamskiye polyany,55.4307,51.4171,63.41,29,99,9.22,RU,1681385011
460,alihe,50.5667,123.7167,34.52,64,100,6.96,CN,1681385011
461,coos bay,43.3665,-124.2179,37.92,94,0,8.05,US,1681385011
462,santona,43.4439,-3.4576,57.33,65,89,21.07,ES,1681385011
463,buchanan,5.8808,-10.0467,85.95,68,21,6.29,LR,1681385012
464,pacific grove,36.6177,-121.9166,42.66,85,8,1.01,US,1681384764
465,uvat,59.1433,68.8953,20.75,77,100,14.12,RU,1681385012
466,solikamsk,59.6196,56.7729,32.07,65,99,11.92,RU,1681385012
467,teseney,15.11,36.6575,100.13,23,25,15.21,ER,1681385013
468,port-gentil,-0.7193,8.7815,89.56,58,40,2.3,GA,1681385013
469,duncanville,32.6518,-96.9083,58.82,89,0,4.61,US,1681385013
470,saint-pierre,-21.3393,55.4781,85.68,66,20,8.05,RE,1681385013
471,numan,9.4667,12.0333,102.45,10,2,5.26,NG,1681385014
472,sovetskiy,61.3614,63.5842,15.3,69,100,11.79,RU,1681385014
473,canutama,-6.5339,-64.3831,75.47,96,100,0.69,BR,1681385014
474,tanhacu,-14.0214,-41.2481,74.52,76,69,4.9,BR,1681385015
475,jiayuguan,39.8167,98.3,51.67,23,95,3.91,CN,1681385015
476,iranshahr,27.2025,60.6848,97.14,14,20,11.5,IR,1681385015
477,morondava,-20.2833,44.2833,82.8,65,71,9.04,MG,1681385015
478,mudanjiang,44.5833,129.6,45.93,32,25,6.49,CN,1681385016
479,lakes entrance,-37.8811,147.981,59.16,90,34,5.66,AU,1681385016
480,el vigia,8.6219,-71.6506,75.18,91,99,1.7,VE,1681385016
481,yuxia,34.0615,108.6291,63.21,83,85,2.13,CN,1681385017
482,odienne,9.51,-7.5692,97.12,18,11,4.63,CI,1681385017
483,takaungu,-3.6837,39.8566,91.89,60,74,11.61,KE,1681385017
484,spokane,47.6166,-117.3677,32.41,83,40,5.75,US,1681384511
485,shimoda,34.6667,138.95,59.04,69,42,4.12,JP,1681385018
486,high level,58.5169,-117.136,28.51,80,0,3.44,CA,1681384802
487,malartic,48.1335,-78.1328,42.91,99,100,8.03,CA,1681385018
488,butembo,0.15,29.2833,73.09,62,100,1.05,CD,1681385018
489,prince rupert,54.3161,-130.3201,38.89,86,100,28.77,CA,1681385018
490,toronto,43.7001,-79.4163,61.09,64,0,4.61,CA,1681385016
491,bontang,0.1333,117.5,82.11,84,92,7.25,ID,1681385019
492,sola,-13.8833,167.55,80.58,80,100,7.29,VU,1681385019
493,dalvik,65.9702,-18.5286,37.33,74,51,5.5,IS,1681385019
494,rancho palos verdes,33.7445,-118.387,55.51,92,100,1.99,US,1681384842
495,pandamatenga,-18.5278,25.627,89.56,19,18,4.72,BW,1681385019
496,lahaina,20.8783,-156.6825,74.8,86,100,8.61,US,1681385020
497,gorontalo,0.5412,123.0595,77.81,94,99,2.42,ID,1681384743
498,nador,35.174,-2.9287,73.47,49,20,17.27,MA,1681385020
499,luga,58.7372,29.8453,52.72,58,100,12.33,RU,1681385020
500,ballina,-28.8667,153.5667,61.79,74,6,14.29,AU,1681385020
501,kailua,21.4022,-157.7394,75.18,79,100,4.0,US,1681384730
502,carballo,43.213,-8.691,55.87,84,87,10.11,ES,1681385021
503,sattur,9.3667,77.9333,100.06,25,1,12.95,IN,1681385021
504,zhaotong,27.3167,103.7167,67.08,61,13,10.51,CN,1681385021
505,tacuarembo,-31.7333,-55.9833,52.95,94,100,7.61,UY,1681384915
506,high prairie,55.4334,-116.4858,31.48,83,66,4.85,CA,1681385021
507,bud,39.447,-86.1758,53.94,81,53,4.9,US,1681385022
508,okhotsk,59.3833,143.3,17.15,95,50,3.49,RU,1681385022
509,honiara,-9.4333,159.95,78.31,88,77,1.99,SB,1681385022
510,tura,25.5198,90.2201,93.9,16,0,5.44,IN,1681384760
511,atasu,48.6814,71.6433,63.59,21,100,5.88,KZ,1681385022
512,kaseda,31.4167,130.3167,62.87,65,49,8.59,JP,1681385022
513,vila,42.0304,-8.1588,45.7,82,100,6.31,PT,1681385023
514,kurilsk,45.2333,147.8833,37.11,69,98,8.21,RU,1681385023
515,touros,-5.1989,-35.4608,80.47,82,100,12.75,BR,1681384768
516,flagstaff,35.1981,-111.6513,44.01,52,0,11.5,US,1681385023
517,aliaga,15.5167,120.8667,81.9,82,100,5.57,PH,1681385023
518,pyaozerskiy,65.8333,31.1667,29.44,70,82,7.56,RU,1681385024
519,yatou,37.15,122.3833,50.9,74,100,15.12,CN,1681385024
520,tartagal,-22.5164,-63.8013,69.06,95,97,8.3,AR,1681385024
521,glendive,47.1053,-104.7125,38.82,81,100,16.11,US,1681385024
522,luwuk,-0.9516,122.7875,79.83,90,74,0.78,ID,1681385025
523,basco,20.4487,121.9702,78.51,87,72,18.63,PH,1681385025
524,teguldet,57.3064,88.1667,34.27,97,100,11.56,RU,1681385025
525,brumunddal,60.881,10.9395,42.4,96,100,13.6,NO,1681385025
526,adeje,28.1227,-16.726,74.01,64,0,23.02,ES,1681385026
527,dunedin,-45.8742,170.5036,53.8,91,100,7.0,NZ,1681384727
528,port hardy,50.6996,-127.4199,41.0,93,100,3.44,CA,1681385026
529,luderitz,-26.6481,15.1594,71.53,43,16,16.84,NA,1681385027
530,wanaka,-44.7,169.15,51.13,94,100,3.67,NZ,1681385027
531,ostrovnoy,68.0531,39.5131,20.61,81,19,9.86,RU,1681385027
532,eureka,40.8021,-124.1637,38.68,93,13,1.01,US,1681385027
533,hovd,48.0056,91.6419,40.44,26,73,6.38,MN,1681385027
534,mae ramat,16.984,98.5166,93.52,34,26,9.57,TH,1681385028
535,kalengwa,-13.4659,25.0027,72.77,76,91,4.92,ZM,1681385028
536,strezhevoy,60.7333,77.5889,12.99,69,100,9.01,RU,1681385028
537,west wendover,40.7391,-114.0733,38.41,45,100,28.77,US,1681385028
538,salekhard,66.53,66.6019,4.91,78,18,10.11,RU,1681385028
539,metlaltoyuca,20.7333,-97.85,62.35,93,32,2.26,MX,1681385029
540,tenenkou,14.4572,-4.9169,97.97,9,100,15.17,ML,1681385029
541,panguna,-6.3164,155.4848,68.36,94,99,2.08,PG,1681385029
542,khandyga,62.6667,135.6,20.82,97,82,0.51,RU,1681385029
543,kamloops,50.6665,-120.3192,32.58,79,0,5.01,CA,1681384849
544,frontignan,43.4485,3.754,59.05,46,7,22.21,FR,1681385029
545,acari,-15.4311,-74.6158,70.05,91,51,0.45,PE,1681385030
546,dharchula,29.85,80.5333,84.11,16,20,7.25,IN,1681385030
547,qinhuangdao,39.9317,119.5883,55.65,62,100,2.73,CN,1681385030
548,ndele,8.4109,20.6473,99.97,28,77,0.92,CF,1681385030
549,dzaoudzi,-12.7887,45.2699,89.49,62,20,5.75,YT,1681385030
550,chepareria,1.3077,35.2039,79.12,40,100,11.65,KE,1681385030
551,cape canaveral,28.4058,-80.6048,74.07,90,75,8.05,US,1681385031
552,chapais,49.7834,-74.8492,24.58,96,70,4.83,CA,1681385031
553,ugoofaaru,5.6667,73.0,84.02,71,30,8.48,MV,1681385031
554,victoria,22.2855,114.1577,77.38,80,43,3.0,HK,1681384804
555,boa vista,2.8197,-60.6733,78.78,78,40,3.44,BR,1681385031
556,ulaangom,49.9811,92.0667,29.79,49,99,5.86,MN,1681385032
557,atambua,-9.1061,124.8925,75.49,87,95,1.9,ID,1681385032
558,latur,18.4,76.5833,99.64,14,93,3.11,IN,1681385032
559,songjianghe,42.1859,127.479,47.32,71,100,6.85,CN,1681385032
560,the valley,18.217,-63.0578,79.11,83,40,9.22,AI,1681384908
561,uige,-7.6087,15.0613,84.6,53,70,1.05,AO,1681385032
562,vernon,50.2581,-119.2691,32.76,78,25,2.3,CA,1681385033
563,pushkinskiye gory,57.0209,28.9103,58.14,51,100,10.27,RU,1681385033
564,coahuayana,18.7333,-103.6833,68.79,58,77,3.22,MX,1681385033
565,tigil,57.8,158.6667,13.64,89,100,5.57,RU,1681385033
566,hundested,55.9667,11.8667,54.97,65,13,13.62,DK,1681385034
567,iguape,-24.7081,-47.5553,71.94,86,7,5.53,BR,1681384845
568,sambava,-14.2667,50.1667,82.17,73,45,9.15,MG,1681385034
569,egvekinot,66.3167,-179.1667,-7.15,87,100,8.14,RU,1681385034
570,gejiu,23.306,103.1635,75.09,15,5,8.34,CN,1681385034
571,kutum,14.2,24.6667,87.87,11,5,12.12,SD,1681385035
572,constitucion,-35.3333,-72.4167,54.46,91,85,1.63,CL,1681385035
573,namtsy,62.7161,129.6658,19.51,95,77,2.89,RU,1681385035
574,gargzdai,55.7128,21.4033,55.18,84,100,9.35,LT,1681385036
575,thinadhoo,0.5333,72.9333,83.34,70,4,1.74,MV,1681385036
576,paris,48.8534,2.3488,57.78,58,75,17.27,FR,1681384807
577,arlit,18.7369,7.3853,94.93,7,53,1.81,NE,1681385036
578,brigantine,39.4101,-74.3646,62.15,66,0,4.61,US,1681385036
579,husavik,66.0449,-17.3389,34.59,83,68,8.37,IS,1681385036
580,yarim,14.298,44.3779,62.55,48,96,8.16,YE,1681385037
581,cochabamba,-17.3895,-66.1568,55.8,81,40,3.44,BO,1681385037
582,presidente medici,-11.1753,-61.9014,72.88,96,100,1.16,BR,1681385037
583,vila franca do campo,37.7167,-25.4333,61.21,76,36,6.33,PT,1681385037
